[
  {
    "Id": "neighborhood.297767",
    "City": "Jamaica Estates, Nueva York, Nueva York 11432, Estados Unidos",
    "Lng": -73.79,
    "Lat": 40.72,
    "Temp": 25.54,
    "Max": 28.18,
    "Min": 22.94,
    "WeatherDescription": "haze"
  },
  {
    "Id": "poi.566935715766",
    "City": "Aloft Hotels, Forum 2 Business Park, Lindora, Radial A Santa Ana, Santa Ana, Provincia de San José, Costa Rica",
    "Lng": -84.195271,
    "Lat": 9.957,
    "Temp": 24.54,
    "Max": 25.36,
    "Min": 23.11,
    "WeatherDescription": "broken clouds"
  },
  {
    "Id": "poi.575525635197",
    "City": "Galp Massamá Norte, Avenida José Régio, Belas, Región de Lisboa 2605-216, Portugal",
    "Lng": -9.279164,
    "Lat": 38.761386,
    "Temp": 16.23,
    "Max": 16.86,
    "Min": 15.2,
    "WeatherDescription": "few clouds"
  },
  {
    "Id": "place.8630171346977270",
    "City": "Belas, Región de Lisboa, Portugal",
    "Lng": -9.2639,
    "Lat": 38.7759,
    "Temp": 16.65,
    "Max": 17.28,
    "Min": 15.62,
    "WeatherDescription": "few clouds"
  },
  {
    "Id": "poi.34359797455",
    "City": "Sintra Terrace Tapas-Bar, Sintra-Cascais Natural Park, Miradouro da Ferraria 3, Sintra, Región de Lisboa 2710-623, Portugal",
    "Lng": -9.389964,
    "Lat": 38.796328,
    "Temp": 16.01,
    "Max": 16.71,
    "Min": 15.05,
    "WeatherDescription": "clear sky"
  }
]